[
{
  "id": 101,
  "name": "Palos Healthcare Center",
  "type": "clinic",
  "specialties": ["Cardiology", "Primary Care", "Urgent Care"],
  "address": "10378 S. Harlem Ave, Palos Hills, IL 60465",
  "hours": "Mon-Fri 8:00 AM - 6:00 PM, Sat 9:00 AM - 2:00 PM",
  "phone": "+1 (708) 529-7109",
  "rating": 4.7,
  "featured": true,
  "isSponsored": true,
  "sponsoredDescription": "Sponsored Listing: Learn more about our special programs and services.",
  "featuredDescription": "Featured Listing: Trusted clinic providing comprehensive care in your area.",
  "image": "/images/businesses/paloshealthcarecenter-logo.webp",
  "website": "https://www.paloshealthcarecenter.com"
},


  {
    "id": 2,
    "name": "Greenwood Hospital",
    "type": "Hospital",
    "featured": true,
    "isSponsored": true,
    "specialties": ["Cardiology", "Emergency"],
    "address": "456 Oak Ave, Chicago, IL",
    "phone": "(312) 555-5678",
    "website": "https://greenwoodhospital.com",
    "rating": 4.7,
    "hours": "Open 24/7",
    "image": "/images/businesses/sunrise.jfif"
  },
  {
    "id": 3,
    "name": "Downtown Urgent Care",
    "type": "Urgent Care",
    "specialties": ["Minor Injuries", "Flu & Cold", "X-Ray"],
    "address": "789 Pine St, Chicago, IL",
    "phone": "(312) 555-9012",
    "website": "https://downtownurgentcare.com",
    "rating": 4.3,
    "hours": "Mon-Sun 8am-10pm",
    "image": "/images/businesses/sunrise.jfif"
  },
    {
    "id": 1,
    "name": "Sunrise Clinic",
    "featured": true,
    "isSponsored": true,
    "type": "Clinic",
    "specialties": ["Dermatology", "General Practice"],
    "address": "123 Main St, Chicago, IL",
    "phone": "(312) 555-1234",
    "website": "https://sunriseclinic.com",
    "rating": 4.5,
    "hours": "Mon-Fri 8am-5pm",
    "image": "/images/businesses/sunrise.jfif"
  },
  {
    "id": 4,
    "name": "Lakeside Pediatric Clinic",
    "type": "Clinic",
    "specialties": ["Pediatrics", "Immunizations", "Well Child Visits"],
    "address": "321 Lakeview Rd, Chicago, IL",
    "phone": "(312) 555-3456",
    "website": "https://lakesidepediatrics.com",
    "rating": 4.8,
    "hours": "Mon-Fri 9am-6pm",
    "image": "/images/businesses/sunrise.jfif"    
  },
  {
    "id": 5,
    "name": "Metro Heart Hospital",
        "isSponsored": true,

    "type": "Hospital",
    "specialties": ["Cardiology", "Heart Surgery", "Emergency"],
    "address": "654 Elm St, Chicago, IL",
    "phone": "(312) 555-7890",
    "website": "https://metrohearthospital.com",
    "rating": 4.9,
    "hours": "Open 24/7",
    "image": "/images/businesses/sunrise.jfif"
  },
  {
    "id": 6,
    "name": "Northside Clinic",
    "featured": true,
    "type": "Clinic",
    "specialties": ["Family Medicine", "Lab Tests"],
    "address": "987 North St, Chicago, IL",
    "phone": "(312) 555-2345",
    "website": "https://northsideclinic.com",
    "rating": 4.4,
    "hours": "Mon-Fri 8am-6pm",
    "image": "/images/businesses/sunrise.jfif"
  },
  {
    "id": 7,
    "name": "City General Hospital",
    "type": "Hospital",
    "specialties": ["Emergency", "Surgery", "Radiology"],
    "address": "654 City Rd, Chicago, IL",
    "phone": "(312) 555-6789",
    "website": "https://citygeneralhospital.com",
    "rating": 4.6,
    "hours": "Open 24/7",
    "image": "/images/businesses/sunrise.jfif"
  },
  {
    "id": 8,
    "name": "Westside Urgent Care",
    "featured": true,
    "type": "Urgent Care",
    "specialties": ["Flu & Cold", "Lab Testing", "X-Ray"],
    "address": "321 West St, Chicago, IL",
    "phone": "(312) 555-4321",
    "website": "https://westsideurgentcare.com",
    "rating": 4.2,
    "hours": "Mon-Sun 8am-10pm",
    "image": "/images/businesses/sunrise.jfif"
  },
  {
    "id": 9,
    "name": "Bright Health Clinic",
    "type": "Clinic",
    "specialties": ["Nutrition", "Wellness", "General Practice"],
    "address": "123 Bright Ave, Chicago, IL",
    "phone": "(312) 555-8765",
    "website": "https://brighthealthclinic.com",
    "rating": 4.5,
    "hours": "Mon-Fri 9am-5pm",
    "image": "/images/businesses/sunrise.jfif"
  },
  {
    "id": 10,
    "name": "Lakeshore Hospital",
    "type": "Hospital",
    "specialties": ["Orthopedics", "Emergency", "Radiology"],
    "address": "456 Lakeshore Dr, Chicago, IL",
    "phone": "(312) 555-6543",
    "website": "https://lakeshorehospital.com",
    "rating": 4.7,
    "hours": "Open 24/7",
    "image": "/images/businesses/sunrise.jfif"
  },
  {
    "id": 11,
    "name": "Southside Urgent Care",
    "type": "Urgent Care",
    "specialties": ["Minor Injuries", "Flu Shots", "X-Ray"],
    "address": "789 South St, Chicago, IL",
    "phone": "(312) 555-2109",
    "website": "https://southsideurgentcare.com",
    "rating": 4.3,
    "hours": "Mon-Sun 8am-10pm",
    "image": "/images/businesses/sunrise.jfif"
  },
  {
    "id": 12,
    "name": "Harmony Clinic",
    "type": "Clinic",
    "specialties": ["Physical Therapy", "Wellness", "Family Medicine"],
    "address": "321 Harmony Ln, Chicago, IL",
    "phone": "(312) 555-5432",
    "website": "https://harmonyclinic.com",
    "rating": 4.6,
    "hours": "Mon-Fri 8am-6pm",
    "image": "/images/businesses/sunrise.jfif"
  },
  {
    "id": 13,
    "name": "Central Hospital",
    "type": "Hospital",
    "specialties": ["Emergency", "Surgery", "ICU"],
    "address": "654 Central Ave, Chicago, IL",
    "phone": "(312) 555-9876",
    "website": "https://centralhospital.com",
    "rating": 4.8,
    "hours": "Open 24/7",
    "image": "/images/businesses/sunrise.jfif"
  },
  {
    "id": 14,
    "name": "Family First Urgent Care",
    "type": "Urgent Care",
    "specialties": ["Flu & Cold", "Lab Testing", "Minor Injuries"],
    "address": "123 Family St, Chicago, IL",
    "phone": "(312) 555-3210",
    "website": "https://familyfirsturgentcare.com",
    "rating": 4.4,
    "hours": "Mon-Sun 8am-10pm",
    "image": "/images/businesses/sunrise.jfif"
  },
  {
    "id": 15,
    "name": "Northstar Clinic",
    "type": "Clinic",
    "specialties": ["Dermatology", "Nutrition", "Wellness"],
    "address": "987 Northstar Rd, Chicago, IL",
    "phone": "(312) 555-6547",
    "website": "https://northstarclinic.com",
    "rating": 4.7,
    "hours": "Mon-Fri 9am-5pm",
    "image": "/images/businesses/sunrise.jfif"
  }
]
